[
  {
    "name": "Tokyo–Yokohama",
    "latitude": 35.5147457,
    "longitude": 139.4839981
  },
  { "name": "Manila", "latitude": 14.5906216, "longitude": 120.9799696 },
  { "name": "Jakarta", "latitude": -6.1753942, "longitude": 106.827183 },
  { "name": "Delhi", "latitude": 28.6517178, "longitude": 77.2219388 },
  { "name": "Seoul-Incheon", "latitude": 37.5056926, "longitude": 126.7358775 },
  { "name": "Mumbai", "latitude": 18.9387711, "longitude": 72.8353355 },
  { "name": "Mexico City", "latitude": 19.4326296, "longitude": -99.1331785 },
  {
    "name": "Guangzhou–Foshan",
    "latitude": 23.1592862,
    "longitude": 113.4566381
  },
  { "name": "New York", "latitude": 40.7127281, "longitude": -74.0060152 },
  { "name": "Dhaka", "latitude": 23.7593572, "longitude": 90.3788136 },
  {
    "name": "Osaka–Kobe–Kyoto",
    "latitude": 34.8038695,
    "longitude": 135.5156628
  },
  { "name": "Moscow", "latitude": 55.7504461, "longitude": 37.6174943 },
  { "name": "Cairo", "latitude": 30.048819, "longitude": 31.243666 },
  { "name": "Beijing", "latitude": 39.906217, "longitude": 116.3912757 },
  { "name": "Karachi", "latitude": 24.8667795, "longitude": 67.0311286 },
  { "name": "Buenos Aires", "latitude": -34.6075682, "longitude": -58.4370894 },
  { "name": "Los Angeles", "latitude": 34.0536909, "longitude": -118.2427666 },
  { "name": "Bangkok", "latitude": 13.7542529, "longitude": 100.493087 },
  { "name": "São Paulo", "latitude": -23.5506507, "longitude": -46.6333824 },
  { "name": "Lagos", "latitude": 6.4550575, "longitude": 3.3941795 },
  { "name": "Kolkata", "latitude": 22.5677459, "longitude": 88.3476023 },
  { "name": "Shenzhen", "latitude": 22.555454, "longitude": 114.0543297 },
  { "name": "Istanbul", "latitude": 41.0096334, "longitude": 28.9651646 },
  { "name": "Tehran", "latitude": 35.7006177, "longitude": 51.4013785 },
  { "name": "Tianjin", "latitude": 39.1235635, "longitude": 117.1980785 },
  { "name": "Shanghai", "latitude": 31.2252985, "longitude": 121.4890497 },
  {
    "name": "Rio de Janeiro",
    "latitude": -22.9110137,
    "longitude": -43.2093727
  },
  { "name": "Lima", "latitude": -12.0621065, "longitude": -77.0365256 },
  { "name": "Lahore", "latitude": 31.5656079, "longitude": 74.3141775 },
  {
    "name": "Ho Chi Minh City",
    "latitude": 10.6497452,
    "longitude": 106.7619794
  },
  { "name": "London", "latitude": 51.5073219, "longitude": -0.1276474 },
  { "name": "Bangalore", "latitude": 12.9791198, "longitude": 77.5912997 },
  { "name": "Paris", "latitude": 48.8566969, "longitude": 2.3514616 },
  { "name": "Chengdu", "latitude": 30.6624205, "longitude": 104.0633219 },
  {
    "name": "Nagoya (Chūkyō)",
    "latitude": 35.1387199,
    "longitude": 136.9665068
  },
  { "name": "Chennai", "latitude": 13.0801721, "longitude": 80.2838331 },
  { "name": "Hyderabad", "latitude": 25.3801017, "longitude": 68.3750376 },
  { "name": "Bogotá", "latitude": 4.59808, "longitude": -74.0760439 },
  {
    "name": "Taipei-Taoyuan",
    "latitude": 24.9929995,
    "longitude": 121.3010003
  },
  { "name": "Kinshasa", "latitude": -4.3217055, "longitude": 15.3125974 },
  { "name": "Chicago", "latitude": 41.8755616, "longitude": -87.6244212 },
  { "name": "Wuhan", "latitude": 30.5951051, "longitude": 114.2999353 },
  { "name": "Onitsha", "latitude": 6.133234, "longitude": 6.792318 },
  { "name": "Kuala Lumpur", "latitude": 3.1516964, "longitude": 101.6942371 },
  { "name": "Dongguan", "latitude": 23.0444712, "longitude": 113.7465512 },
  { "name": "Hanoi", "latitude": 21.0294498, "longitude": 105.8544441 },
  { "name": "Ahmedabad", "latitude": 23.0216238, "longitude": 72.5797068 },
  {
    "name": "Washington, D.C.-Baltimore",
    "latitude": 39.2908816,
    "longitude": -76.610759
  },
  { "name": "Luanda", "latitude": -8.8272699, "longitude": 13.2439512 },
  { "name": "Baghdad", "latitude": 33.3024309, "longitude": 44.3787992 },
  {
    "name": "Xi'an–Xianyang",
    "latitude": 34.3075655,
    "longitude": 108.7234362
  },
  { "name": "Hong Kong", "latitude": 22.2793278, "longitude": 114.1628131 },
  {
    "name": "Johannesburg–East Rand",
    "latitude": 35.3732015,
    "longitude": -117.6432874
  },
  {
    "name": "Zhengzhou–Xingyang",
    "latitude": 34.7891274,
    "longitude": 113.3724566
  },
  {
    "name": "Boston-Providence",
    "latitude": 41.7048225,
    "longitude": -71.5483952
  },
  { "name": "Shenyang", "latitude": 41.8041094, "longitude": 123.4276363 },
  { "name": "Hangzhou", "latitude": 30.2489634, "longitude": 120.2052342 },
  {
    "name": "Toronto–Hamilton",
    "latitude": 43.6706177,
    "longitude": -79.3746817
  },
  { "name": "Quanzhou", "latitude": 24.9038801, "longitude": 118.5851458 },
  {
    "name": "Dallas–Fort Worth",
    "latitude": 32.7379037,
    "longitude": -97.2394281
  },
  { "name": "Santiago", "latitude": 9.8694792, "longitude": -83.7980749 },
  { "name": "Houston", "latitude": 29.7589382, "longitude": -95.3676974 },
  { "name": "Surat", "latitude": 45.9383, "longitude": 3.2553 },
  { "name": "Madrid", "latitude": 40.4167047, "longitude": -3.7035825 },
  { "name": "Nanjing", "latitude": 32.0609736, "longitude": 118.7916458 },
  { "name": "Pune", "latitude": 18.521428, "longitude": 73.8544541 },
  { "name": "Riyadh", "latitude": 24.6319692, "longitude": 46.7150648 },
  { "name": "Nairobi", "latitude": -1.2832533, "longitude": 36.8172449 },
  { "name": "Qingdao–Jimo", "latitude": 36.4660932, "longitude": 120.6190022 },
  { "name": "Miami", "latitude": 25.7742658, "longitude": -80.1936589 },
  {
    "name": "San Francisco-San Jose",
    "latitude": 8.3512768,
    "longitude": -81.0390519
  },
  { "name": "Philadelphia", "latitude": 39.9527237, "longitude": -75.1635262 },
  { "name": "Khartoum", "latitude": 15.593325, "longitude": 32.53565 },
  { "name": "Amman", "latitude": 31.9515694, "longitude": 35.9239625 },
  { "name": "Atlanta", "latitude": 33.7490987, "longitude": -84.3901849 },
  { "name": "Singapore", "latitude": 1.340863, "longitude": 103.8303918 },
  { "name": "Chongqing", "latitude": 29.5585712, "longitude": 106.5492822 },
  { "name": "Yangon", "latitude": 16.7967129, "longitude": 96.1609916 },
  { "name": "Suzhou", "latitude": 31.3016935, "longitude": 120.5810725 },
  { "name": "Milan", "latitude": 45.4668, "longitude": 9.1905 },
  { "name": "Aleppo", "latitude": 36.19924, "longitude": 37.1637253 },
  { "name": "Saint Petersburg", "latitude": 59.938732, "longitude": 30.316229 },
  { "name": "Dar es Salaam", "latitude": -6.8160837, "longitude": 39.2803583 },
  { "name": "Bandung", "latitude": -6.9344694, "longitude": 107.6049539 },
  { "name": "Guadalajara", "latitude": 20.6720375, "longitude": -103.3383962 },
  { "name": "Barcelona", "latitude": 41.3828939, "longitude": 2.1774322 },
  {
    "name": "Belo Horizonte",
    "latitude": -19.9227318,
    "longitude": -43.9450948
  },
  { "name": "Alexandria", "latitude": 31.199004, "longitude": 29.894378 },
  { "name": "Kuwait City", "latitude": 29.3797091, "longitude": 47.9735629 },
  { "name": "Harbin", "latitude": 45.7656666, "longitude": 126.6160584 },
  { "name": "Sydney", "latitude": -33.8548157, "longitude": 151.2164539 },
  { "name": "Abidjan", "latitude": 5.320357, "longitude": -4.016107 },
  { "name": "Casablanca", "latitude": 33.5950627, "longitude": -7.6187768 },
  { "name": "Melbourne", "latitude": -37.8142176, "longitude": 144.9631608 },
  { "name": "Phoenix", "latitude": 33.4484367, "longitude": -112.0741417 },
  { "name": "Colombo", "latitude": 6.9349969, "longitude": 79.8538463 },
  { "name": "Monterrey", "latitude": 25.6802019, "longitude": -100.3152586 },
  { "name": "Surabaya", "latitude": -7.2459717, "longitude": 112.7378266 },
  { "name": "Ankara", "latitude": 39.9207774, "longitude": 32.854067 }
]
